City_ID,City,Lat,Lng,Max Temp,Humidity,Cloudiness,Wind Speed,Country,Date,Current Description
0,Piet Retief,-27.0071,30.8132,66.63,62,0,5.73,ZA,2022-03-31 15:46:15,clear sky
1,Komsomolskiy,40.4272,71.7189,56.12,58,0,4.61,UZ,2022-03-31 15:46:15,clear sky
2,Hilo,19.7297,-155.09,69.53,91,75,5.75,US,2022-03-31 15:43:52,broken clouds
3,Kapaa,22.0752,-159.319,73.11,95,20,11.5,US,2022-03-31 15:42:58,few clouds
4,Suntar,62.1444,117.6319,30.06,97,100,7.9,RU,2022-03-31 15:46:16,light snow
5,Avarua,-21.2078,-159.775,75.25,94,6,2.3,CK,2022-03-31 15:46:16,clear sky
6,Qaanaaq,77.484,-69.3632,21.06,70,28,6.89,GL,2022-03-31 15:46:16,scattered clouds
7,Abapo,-18.8333,-63.4667,61.5,25,100,6.38,BO,2022-03-31 15:46:16,overcast clouds
8,Ushuaia,-54.8,-68.3,49.66,57,20,13.8,AR,2022-03-31 15:41:30,few clouds
9,Gobabis,-22.45,18.9667,77.5,47,95,13.29,NA,2022-03-31 15:43:24,overcast clouds
10,Hobart,-42.8794,147.3294,55.26,71,100,10.36,AU,2022-03-31 15:46:04,overcast clouds
11,Thompson,55.7435,-97.8558,28.56,54,75,6.91,CA,2022-03-31 15:46:17,broken clouds
12,Albany,42.6001,-73.9662,56.17,80,88,1.01,US,2022-03-31 15:46:17,overcast clouds
13,Raga,8.4596,25.678,95.16,12,28,5.01,SS,2022-03-31 15:46:18,scattered clouds
14,Iqaluit,63.7506,-68.5145,26.33,92,100,5.75,CA,2022-03-31 15:46:18,light snow
15,Tuktoyaktuk,69.4541,-133.0374,-23.8,69,40,9.22,CA,2022-03-31 15:46:18,scattered clouds
16,Puerto Ayora,-0.7393,-90.3518,82.36,75,94,6.98,EC,2022-03-31 15:46:18,light rain
17,Kaihua,23.3687,104.28,53.2,80,100,10.63,CN,2022-03-31 15:46:19,overcast clouds
18,Bolobo,-2.1667,16.2333,88.83,50,49,3.04,CD,2022-03-31 15:46:19,scattered clouds
19,Punta Arenas,-53.15,-70.9167,51.91,46,75,19.57,CL,2022-03-31 15:42:49,broken clouds
20,Morondava,-20.2833,44.2833,84.04,67,29,6.53,MG,2022-03-31 15:46:19,scattered clouds
21,Westport,41.1415,-73.3579,60.1,93,20,3.44,US,2022-03-31 15:46:07,few clouds
22,Katubao,5.8892,124.8294,79.77,81,64,2.59,PH,2022-03-31 15:46:20,broken clouds
23,Busselton,-33.65,115.3333,72.72,66,0,12.53,AU,2022-03-31 15:46:20,clear sky
24,Tonantins,-2.8731,-67.8022,83.12,68,94,4.7,BR,2022-03-31 15:46:20,overcast clouds
25,Yellowknife,62.456,-114.3525,13.41,77,100,3.44,CA,2022-03-31 15:42:47,overcast clouds
26,Buraydah,26.326,43.975,91.85,11,0,9.73,SA,2022-03-31 15:46:21,clear sky
27,Shelburne,44.0787,-80.2041,59.45,79,49,29.19,CA,2022-03-31 15:46:21,scattered clouds
28,Ribeira Grande,38.5167,-28.7,64.8,82,75,9.22,PT,2022-03-31 15:46:21,broken clouds
29,Mataura,-46.1927,168.8643,46.04,90,100,0.54,NZ,2022-03-31 15:46:22,overcast clouds
30,Ancud,-41.8697,-73.8203,59.23,60,100,2.71,CL,2022-03-31 15:46:22,overcast clouds
31,Port Alfred,-33.5906,26.891,64.18,92,100,3.0,ZA,2022-03-31 15:46:22,overcast clouds
32,Abha,18.2164,42.5053,73.22,49,20,10.36,SA,2022-03-31 15:46:23,few clouds
33,Lebu,-37.6167,-73.65,57.2,58,5,20.18,CL,2022-03-31 15:46:09,clear sky
34,Ambulu,-8.345,113.6058,76.35,90,61,3.0,ID,2022-03-31 15:46:23,light rain
35,Saint-Philippe,-21.3585,55.7679,78.39,72,59,13.82,RE,2022-03-31 15:46:23,broken clouds
36,Ponnani,10.767,75.9252,83.52,80,20,6.51,IN,2022-03-31 15:46:23,few clouds
37,Rikitea,-23.1203,-134.9692,77.45,73,58,15.75,PF,2022-03-31 15:46:24,light rain
38,Mahebourg,-20.4081,57.7,79.09,73,75,18.41,MU,2022-03-31 15:46:24,broken clouds
39,Tasiilaq,65.6145,-37.6368,41.16,99,100,4.92,GL,2022-03-31 15:46:24,light rain
40,Kaabong,3.4836,34.1492,75.9,46,57,16.89,UG,2022-03-31 15:46:25,broken clouds
41,Mar Del Plata,-38.0023,-57.5575,60.82,81,40,12.66,AR,2022-03-31 15:46:25,scattered clouds
42,Beberibe,-4.1797,-38.1306,76.8,87,100,2.68,BR,2022-03-31 15:46:25,overcast clouds
43,Banjar,-8.19,114.9675,77.16,90,92,3.98,ID,2022-03-31 15:46:26,overcast clouds
44,Pevek,69.7008,170.3133,-22.95,99,95,5.21,RU,2022-03-31 15:46:26,overcast clouds
45,Hermanus,-34.4187,19.2345,66.79,69,63,9.71,ZA,2022-03-31 15:47:26,broken clouds
46,Cape Town,-33.9258,18.4232,70.11,70,0,23.02,ZA,2022-03-31 15:47:26,clear sky
47,Carnarvon,-24.8667,113.6333,71.67,94,100,17.27,AU,2022-03-31 15:47:27,overcast clouds
48,Atar,20.5169,-13.0499,92.3,11,47,9.64,MR,2022-03-31 15:47:27,scattered clouds
49,Moron,-34.6534,-58.6198,64.94,35,0,4.65,AR,2022-03-31 15:47:27,clear sky
50,Severo-Kurilsk,50.6789,156.125,29.8,93,96,15.19,RU,2022-03-31 15:47:27,light snow
51,Castro,-24.7911,-50.0119,60.1,98,99,8.39,BR,2022-03-31 15:47:28,overcast clouds
52,Krasnoselkup,65.7,82.4667,16.18,84,100,20.04,RU,2022-03-31 15:47:28,overcast clouds
53,Fraga,41.5229,0.3489,61.63,38,72,24.18,ES,2022-03-31 15:47:28,broken clouds
54,Mumias,0.3351,34.4864,71.17,78,78,5.5,KE,2022-03-31 15:47:29,broken clouds
55,Sioux Lookout,50.1001,-91.917,21.27,79,100,14.97,CA,2022-03-31 15:47:29,overcast clouds
56,East London,-33.0153,27.9116,67.14,94,75,10.36,ZA,2022-03-31 15:47:29,light rain
57,Kahului,20.8947,-156.47,74.84,87,0,4.61,US,2022-03-31 15:47:29,clear sky
58,Aguascalientes,21.8833,-102.3,66.36,12,71,2.35,MX,2022-03-31 15:46:38,broken clouds
59,Lewiston,44.1003,-70.2148,44.06,89,100,6.91,US,2022-03-31 15:43:33,overcast clouds
60,Pangnirtung,66.1451,-65.7125,19.4,93,100,5.75,CA,2022-03-31 15:47:30,light snow
61,Manali,13.1667,80.2667,86.09,89,3,13.18,IN,2022-03-31 15:43:04,clear sky
62,Saskylakh,71.9167,114.0833,3.97,98,100,5.03,RU,2022-03-31 15:47:30,overcast clouds
63,Karamadai,11.2406,76.9601,84.58,54,31,6.17,IN,2022-03-31 15:47:30,scattered clouds
64,Caravelas,-17.7125,-39.2481,88.07,53,1,10.18,BR,2022-03-31 15:47:31,clear sky
65,Suicheng,33.8963,117.9331,47.88,57,100,3.27,CN,2022-03-31 15:47:31,overcast clouds
66,Norman Wells,65.282,-126.8329,-16.56,63,20,14.97,CA,2022-03-31 15:47:31,few clouds
67,Atuona,-9.8,-139.0333,78.33,73,32,10.49,PF,2022-03-31 15:47:32,scattered clouds
68,Shingu,33.7333,135.9833,51.55,87,100,7.05,JP,2022-03-31 15:47:32,light rain
69,Bluff,-46.6,168.3333,49.75,62,100,11.43,NZ,2022-03-31 15:47:32,overcast clouds
70,Bhindar,24.5,74.1833,86.25,16,0,6.89,IN,2022-03-31 15:47:32,clear sky
71,Guerrero Negro,27.9769,-114.0611,61.41,70,100,13.47,MX,2022-03-31 15:47:33,overcast clouds
72,Torbay,47.6666,-52.7314,40.53,77,75,17.27,CA,2022-03-31 15:47:33,light rain
73,Stornoway,58.2093,-6.3865,41.94,68,40,9.22,GB,2022-03-31 15:47:33,scattered clouds
74,Vila Velha,-20.3297,-40.2925,93.15,62,0,10.36,BR,2022-03-31 15:47:34,clear sky
75,Portland,45.5234,-122.6762,46.11,88,75,3.44,US,2022-03-31 15:43:16,broken clouds
76,Jamestown,42.097,-79.2353,62.51,73,100,10.0,US,2022-03-31 15:47:34,overcast clouds
77,Katsuura,35.1333,140.3,51.82,90,100,23.85,JP,2022-03-31 15:47:34,light rain
78,Santa Rosa,14.3122,121.1114,84.18,76,10,9.57,PH,2022-03-31 15:43:16,clear sky
79,Lavrentiya,65.5833,-171.0,12.29,87,89,12.06,RU,2022-03-31 15:47:35,overcast clouds
80,Chicama,-7.8447,-79.1469,66.74,65,91,8.25,PE,2022-03-31 15:47:35,overcast clouds
81,Palana,59.1167,159.9667,14.38,88,100,8.28,RU,2022-03-31 15:47:35,overcast clouds
82,Cidreira,-30.1811,-50.2056,65.07,52,39,9.93,BR,2022-03-31 15:47:36,scattered clouds
83,Bredasdorp,-34.5322,20.0403,65.52,56,95,10.87,ZA,2022-03-31 15:47:36,overcast clouds
84,Dogondoutchi,13.6393,4.0287,103.26,3,8,2.21,NE,2022-03-31 15:47:36,clear sky
85,Erzin,36.9559,36.2,60.85,66,77,2.53,TR,2022-03-31 15:47:36,broken clouds
86,Haines Junction,60.7522,-137.5108,13.95,85,64,1.14,CA,2022-03-31 15:47:37,broken clouds
87,Ahipara,-35.1667,173.1667,62.04,91,59,2.08,NZ,2022-03-31 15:47:37,broken clouds
88,Yumen,40.2833,97.2,41.5,18,0,5.39,CN,2022-03-31 15:47:37,clear sky
89,Koroni,36.8,21.95,64.08,69,100,21.43,GR,2022-03-31 15:47:38,overcast clouds
90,Rawson,-43.3002,-65.1023,67.21,25,74,10.07,AR,2022-03-31 15:47:38,broken clouds
91,Sao Filipe,14.8961,-24.4956,71.37,78,6,10.2,CV,2022-03-31 15:47:38,clear sky
92,Muroto,33.2833,134.15,52.65,85,100,19.42,JP,2022-03-31 15:48:39,light rain
93,Tuatapere,-46.1333,167.6833,47.84,87,100,4.79,NZ,2022-03-31 15:48:39,overcast clouds
94,Vaini,-21.2,-175.2,80.28,79,100,11.61,TO,2022-03-31 15:48:39,light rain
95,Dikson,73.5069,80.5464,17.67,90,75,10.51,RU,2022-03-31 15:48:39,broken clouds
96,Malyn,50.7723,29.2383,49.33,82,100,11.83,UA,2022-03-31 15:48:40,overcast clouds
97,Longyearbyen,78.2186,15.6401,10.24,85,75,2.3,SJ,2022-03-31 15:48:40,light shower snow
98,Vanavara,60.34,102.2797,29.25,95,100,14.07,RU,2022-03-31 15:48:40,light snow
99,Kandrian,-6.2167,149.55,77.92,88,99,6.29,PG,2022-03-31 15:48:41,light rain
100,Kokstad,-30.5472,29.4241,62.67,93,38,3.09,ZA,2022-03-31 15:48:41,moderate rain
101,Butaritari,3.0707,172.7902,80.26,80,72,12.82,KI,2022-03-31 15:48:41,light rain
102,Daru,-9.0763,143.2092,77.49,87,97,7.78,PG,2022-03-31 15:48:42,overcast clouds
103,Mocajuba,-2.5842,-49.5072,76.1,96,100,2.73,BR,2022-03-31 15:48:42,overcast clouds
104,Flinders,-34.5833,150.8552,59.18,86,100,8.99,AU,2022-03-31 15:48:42,light rain
105,Cherskiy,68.75,161.3,-12.73,100,99,4.65,RU,2022-03-31 15:48:42,overcast clouds
106,Vardo,70.3705,31.1107,26.58,74,75,18.41,NO,2022-03-31 15:48:43,broken clouds
107,Kuloy,61.0305,42.4925,24.76,90,100,4.81,RU,2022-03-31 15:48:43,overcast clouds
108,Mareeba,-17.0,145.4333,66.43,91,4,1.28,AU,2022-03-31 15:48:43,clear sky
109,Tuma,55.148,40.5537,32.85,99,100,5.39,RU,2022-03-31 15:48:44,light snow
110,Bhunya,-26.55,31.0167,67.84,65,0,3.78,SZ,2022-03-31 15:48:44,clear sky
111,Nikolskoye,59.7035,30.7861,31.91,84,70,2.89,RU,2022-03-31 15:48:44,broken clouds
112,Georgetown,5.4112,100.3354,80.53,88,20,3.44,MY,2022-03-31 15:43:59,few clouds
113,Homer,59.6425,-151.5483,41.04,65,75,11.99,US,2022-03-31 15:48:45,broken clouds
114,Port Elizabeth,-33.918,25.5701,68.09,92,75,12.66,ZA,2022-03-31 15:48:45,mist
115,General Roca,-39.0333,-67.5833,69.62,14,2,12.95,AR,2022-03-31 15:48:45,clear sky
116,Saint George,37.1041,-113.5841,61.63,46,75,0.0,US,2022-03-31 15:45:19,broken clouds
117,Clyde River,70.4692,-68.5914,-0.17,85,40,6.91,CA,2022-03-31 15:48:45,scattered clouds
118,Faanui,-16.4833,-151.75,81.81,68,32,15.79,PF,2022-03-31 15:48:46,scattered clouds
119,Karratha,-20.7377,116.8463,85.39,68,100,7.43,AU,2022-03-31 15:48:46,overcast clouds
120,Leningradskiy,69.3833,178.4167,-9.4,93,95,2.28,RU,2022-03-31 15:48:46,overcast clouds
121,Maragogi,-9.0122,-35.2225,83.5,68,100,7.14,BR,2022-03-31 15:48:47,light rain
122,Celestun,20.8667,-90.4,83.86,68,0,8.59,MX,2022-03-31 15:48:47,clear sky
123,Matagami,49.7502,-77.6328,32.11,100,100,6.91,CA,2022-03-31 15:48:47,moderate rain
124,Lasa,46.6166,10.7002,52.7,95,100,3.65,IT,2022-03-31 15:48:48,overcast clouds
125,Airai,-8.9266,125.4092,57.54,88,9,1.86,TL,2022-03-31 15:48:48,clear sky
126,Majene,-3.5403,118.9707,78.08,86,98,3.87,ID,2022-03-31 15:48:48,overcast clouds
127,New Norfolk,-42.7826,147.0587,54.9,67,60,1.7,AU,2022-03-31 15:48:48,broken clouds
128,Oriximina,-1.7656,-55.8661,79.84,80,99,1.41,BR,2022-03-31 15:48:49,overcast clouds
129,San Quintin,30.4833,-115.95,59.85,73,99,12.59,MX,2022-03-31 15:48:49,overcast clouds
130,Hualmay,-11.0964,-77.6139,74.41,74,57,8.88,PE,2022-03-31 15:48:49,broken clouds
131,Vila Franca Do Campo,37.7167,-25.4333,64.81,78,99,6.17,PT,2022-03-31 15:48:50,overcast clouds
132,Ankazoabo,-22.2833,44.5167,77.83,47,2,8.84,MG,2022-03-31 15:48:50,clear sky
133,Vao,-22.6667,167.4833,78.62,85,2,10.83,NC,2022-03-31 15:48:50,clear sky
134,Isangel,-19.55,169.2667,80.51,86,91,5.64,VU,2022-03-31 15:48:50,overcast clouds
135,Talnakh,69.4865,88.3972,15.21,94,71,5.35,RU,2022-03-31 15:48:51,broken clouds
136,Souillac,-20.5167,57.5167,79.18,73,75,18.41,MU,2022-03-31 15:48:51,broken clouds
137,Khatanga,71.9667,102.5,3.38,95,36,6.69,RU,2022-03-31 15:48:51,scattered clouds
138,Vestmanna,62.1564,-7.1664,36.52,56,100,6.91,FO,2022-03-31 15:49:52,overcast clouds
139,Pisco,-13.7,-76.2167,70.02,68,0,11.5,PE,2022-03-31 15:49:52,clear sky
140,Kenora,49.8167,-94.4337,23.97,74,100,10.36,CA,2022-03-31 15:49:52,overcast clouds
141,Barrow,71.2906,-156.7887,-16.58,69,0,14.97,US,2022-03-31 15:49:53,clear sky
142,Hithadhoo,-0.6,73.0833,83.46,69,7,4.81,MV,2022-03-31 15:49:38,clear sky
143,Margate,51.3813,1.3862,42.31,63,100,18.99,GB,2022-03-31 15:49:53,overcast clouds
144,Paamiut,61.994,-49.6678,33.78,91,100,7.25,GL,2022-03-31 15:49:53,overcast clouds
145,Yulara,-25.2406,130.9889,71.44,28,65,8.05,AU,2022-03-31 15:49:53,broken clouds
146,Constitucion,-35.3333,-72.4167,64.94,42,0,11.3,CL,2022-03-31 15:49:54,clear sky
147,Dieppe,49.75,1.1667,39.33,91,93,1.99,FR,2022-03-31 15:49:54,light rain
148,Topeka,39.0483,-95.678,34.18,79,100,14.97,US,2022-03-31 15:49:54,overcast clouds
149,Touros,-5.1989,-35.4608,82.0,76,99,11.81,BR,2022-03-31 15:49:55,overcast clouds
150,Kaitangata,-46.2817,169.8464,48.33,76,100,6.62,NZ,2022-03-31 15:49:55,light rain
151,Chokurdakh,70.6333,147.9167,-30.71,100,89,0.98,RU,2022-03-31 15:49:55,overcast clouds
152,Kirovskiy,45.0917,133.5136,29.34,62,97,10.96,RU,2022-03-31 15:49:55,overcast clouds
153,Bilma,18.6853,12.9164,95.47,2,26,7.36,NE,2022-03-31 15:49:56,scattered clouds
154,Shitanjing,39.2342,106.3439,45.34,20,49,10.07,CN,2022-03-31 15:49:56,scattered clouds
155,Meshchovsk,54.3244,35.2808,32.45,100,100,3.42,RU,2022-03-31 15:49:56,light snow
156,Kurumkan,54.3,110.3,12.04,85,77,4.88,RU,2022-03-31 15:49:57,broken clouds
157,Bambous Virieux,-20.3428,57.7575,79.05,73,75,18.41,MU,2022-03-31 15:49:57,light rain
158,Bosaso,11.2842,49.1816,80.35,76,6,7.14,SO,2022-03-31 15:49:27,clear sky
159,Iowa City,41.6611,-91.5302,36.01,85,100,12.66,US,2022-03-31 15:49:57,overcast clouds
160,Cabo San Lucas,22.8909,-109.9124,75.06,56,98,4.7,MX,2022-03-31 15:49:58,overcast clouds
161,Syasstroy,60.1367,32.5691,23.97,86,36,0.07,RU,2022-03-31 15:49:58,scattered clouds
162,Tete,-16.1564,33.5867,89.69,48,40,5.75,MZ,2022-03-31 15:49:58,scattered clouds
163,Provideniya,64.3833,-173.3,19.87,84,100,19.69,RU,2022-03-31 15:49:58,overcast clouds
164,Whitianga,-36.8333,175.7,62.01,88,56,4.29,NZ,2022-03-31 15:49:59,broken clouds
165,Lengshuitan,26.4111,111.5956,54.81,88,100,9.66,CN,2022-03-31 15:49:59,overcast clouds
166,Kasongo-Lunda,-6.4667,16.8167,76.87,87,78,3.18,CD,2022-03-31 15:49:59,moderate rain
167,Adrar,20.5022,-10.0711,86.72,13,100,10.29,MR,2022-03-31 15:50:00,overcast clouds
168,Dokka,60.84,10.0618,35.08,57,100,3.87,NO,2022-03-31 15:50:00,overcast clouds
169,Richards Bay,-28.783,32.0377,77.09,76,7,8.97,ZA,2022-03-31 15:50:01,clear sky
170,Dicabisagan,17.0818,122.4157,76.95,90,24,3.74,PH,2022-03-31 15:50:01,light rain
171,La Ronge,55.1001,-105.2842,32.25,64,75,6.91,CA,2022-03-31 15:50:02,broken clouds
172,Steamboat Springs,40.485,-106.8317,36.9,74,0,1.01,US,2022-03-31 15:47:27,clear sky
173,Namibe,-15.1961,12.1522,75.83,69,20,20.71,AO,2022-03-31 15:50:03,few clouds
174,Poum,-20.2333,164.0167,80.83,79,10,5.82,NC,2022-03-31 15:50:04,clear sky
175,Ponta Do Sol,32.6667,-17.1,68.13,73,40,0.89,PT,2022-03-31 15:49:25,scattered clouds
176,Mulchen,-37.7167,-72.2333,57.06,25,2,8.05,CL,2022-03-31 15:50:05,clear sky
177,Ilulissat,69.2167,-51.1,17.62,93,100,2.3,GL,2022-03-31 15:49:50,mist
178,Cambrils,41.0748,1.0524,63.1,41,20,19.57,ES,2022-03-31 15:50:05,few clouds
179,Sao Joao Da Barra,-21.6403,-41.0511,89.69,69,15,8.16,BR,2022-03-31 15:50:06,few clouds
180,Ca Mau,9.1769,105.15,80.1,82,99,2.64,VN,2022-03-31 15:50:06,overcast clouds
181,Aljojuca,19.1,-97.5167,68.68,17,13,8.68,MX,2022-03-31 15:50:07,few clouds
182,Kirkuk,35.4681,44.3922,70.39,26,0,8.68,IQ,2022-03-31 15:50:07,clear sky
183,Bandarbeyla,9.4942,50.8122,81.1,80,5,11.68,SO,2022-03-31 15:50:07,clear sky
184,Pulandian,39.3953,121.9669,39.56,43,0,11.59,CN,2022-03-31 15:51:08,clear sky
185,Tagusao,9.1924,117.8141,79.61,81,4,4.45,PH,2022-03-31 15:51:09,clear sky
186,Tongren,27.7172,109.1853,53.08,89,100,6.96,CN,2022-03-31 15:51:09,overcast clouds
187,Tiksi,71.6872,128.8694,0.12,99,100,6.04,RU,2022-03-31 15:51:10,overcast clouds
188,Ziro,27.6333,93.8333,52.03,98,100,1.19,IN,2022-03-31 15:51:10,overcast clouds
189,Arraial Do Cabo,-22.9661,-42.0278,84.16,74,0,14.97,BR,2022-03-31 15:51:10,clear sky
190,Chor,25.5167,69.7667,92.14,4,0,6.69,PK,2022-03-31 15:51:11,clear sky
191,Zyryanka,65.75,150.85,-5.39,96,100,8.57,RU,2022-03-31 15:51:11,overcast clouds
192,Kruisfontein,-34.0033,24.7314,65.88,77,100,7.18,ZA,2022-03-31 15:51:11,light rain
193,Miri,4.4148,114.0089,73.54,94,40,3.44,MY,2022-03-31 15:47:02,scattered clouds
194,Cerritos,33.8583,-118.0648,61.32,82,75,4.61,US,2022-03-31 15:48:28,broken clouds
195,Kaohsiung,22.6163,120.3133,75.15,83,75,5.75,TW,2022-03-31 15:49:25,mist
196,Kodiak,57.79,-152.4072,38.71,100,100,19.57,US,2022-03-31 15:51:12,light rain
197,Astana,51.1801,71.446,31.95,86,0,4.47,KZ,2022-03-31 15:51:12,clear sky
198,Wahiawa,21.5028,-158.0236,70.86,84,0,3.44,US,2022-03-31 15:51:12,clear sky
199,Walvis Bay,-22.9575,14.5053,76.15,53,7,12.66,NA,2022-03-31 15:51:13,clear sky
200,Virginia Beach,36.8529,-75.978,73.02,71,100,7.0,US,2022-03-31 15:47:44,overcast clouds
201,Upernavik,72.7868,-56.1549,19.8,92,100,12.5,GL,2022-03-31 15:51:13,overcast clouds
202,Yerbogachen,61.2767,108.0108,23.29,92,40,10.71,RU,2022-03-31 15:51:13,scattered clouds
203,Esperance,-33.8667,121.9,66.04,81,100,19.71,AU,2022-03-31 15:51:14,overcast clouds
204,Chuy,-33.6971,-53.4616,66.09,39,32,10.09,UY,2022-03-31 15:51:14,scattered clouds
205,Los Llanos De Aridane,28.6585,-17.9182,64.15,82,75,12.66,ES,2022-03-31 15:51:14,broken clouds
206,Lianran,24.9227,102.485,43.34,83,96,8.63,CN,2022-03-31 15:51:15,overcast clouds
207,Bengkulu,-3.8004,102.2655,76.82,82,75,6.13,ID,2022-03-31 15:50:58,broken clouds
208,West Lafayette,40.4259,-86.9081,41.11,84,100,14.97,US,2022-03-31 15:47:56,overcast clouds
209,Kavieng,-2.5744,150.7967,81.81,78,100,16.26,PG,2022-03-31 15:51:15,moderate rain
210,Aswan,24.0934,32.907,99.7,6,12,6.91,EG,2022-03-31 15:51:15,few clouds
211,Belaya Gora,68.5333,146.4167,-24.11,100,97,0.2,RU,2022-03-31 15:50:22,overcast clouds
212,Egvekinot,66.3167,-179.1667,5.23,90,99,15.32,RU,2022-03-31 15:51:16,overcast clouds
213,Padang,-0.9492,100.3543,76.93,85,14,3.8,ID,2022-03-31 15:51:16,few clouds
214,Chernyshevskiy,63.0128,112.4714,25.93,91,100,11.34,RU,2022-03-31 15:51:17,overcast clouds
215,Cedar City,37.6775,-113.0619,48.4,70,40,8.05,US,2022-03-31 15:51:17,scattered clouds
216,Bethanien,-26.502,17.1583,86.4,21,20,20.45,NA,2022-03-31 15:51:17,few clouds
217,Nome,64.5011,-165.4064,28.47,46,0,18.41,US,2022-03-31 15:50:37,clear sky
218,Saint Anthony,45.0205,-93.218,32.31,70,100,19.57,US,2022-03-31 15:51:17,overcast clouds
219,Narsaq,60.9167,-46.05,39.18,68,96,3.51,GL,2022-03-31 15:51:18,overcast clouds
220,Kieta,-6.2167,155.6333,79.03,83,81,2.71,PG,2022-03-31 15:51:18,broken clouds
221,Comonfort,20.7167,-100.7667,76.21,16,5,6.08,MX,2022-03-31 15:51:18,clear sky
222,Aykhal,66.0,111.5,22.62,97,100,9.51,RU,2022-03-31 15:51:19,overcast clouds
223,Port Hedland,-20.3167,118.5667,82.45,83,53,5.75,AU,2022-03-31 15:51:19,broken clouds
224,Ulladulla,-35.35,150.4667,58.77,79,92,21.99,AU,2022-03-31 15:51:19,light rain
225,Viransehir,37.2353,39.7631,58.1,46,17,2.46,TR,2022-03-31 15:51:20,few clouds
226,Booue,-0.0921,11.9385,79.09,85,97,1.5,GA,2022-03-31 15:51:20,light rain
227,Xinzhou,38.4092,112.7333,42.89,24,27,5.55,CN,2022-03-31 15:51:20,scattered clouds
228,Solnechnyy,50.7214,136.6319,16.92,96,100,2.73,RU,2022-03-31 15:51:21,overcast clouds
229,Morro Bay,35.3658,-120.8499,53.85,85,52,3.0,US,2022-03-31 15:51:21,broken clouds
230,Luderitz,-26.6481,15.1594,69.33,61,0,26.22,NA,2022-03-31 15:52:21,clear sky
231,Michigan City,41.7075,-86.895,38.25,95,100,11.5,US,2022-03-31 15:48:05,light intensity drizzle
232,High Level,58.5169,-117.136,28.51,93,100,9.22,CA,2022-03-31 15:52:22,light snow
233,Korla,41.7597,86.1469,51.31,37,0,4.29,CN,2022-03-31 15:52:22,clear sky
234,Paita,-5.0892,-81.1144,74.53,73,98,8.75,PE,2022-03-31 15:52:22,overcast clouds
235,College,64.8569,-147.8028,12.52,52,75,6.91,US,2022-03-31 15:52:23,broken clouds
236,Sitka,57.0531,-135.33,37.29,87,75,6.91,US,2022-03-31 15:52:23,broken clouds
237,Daye,30.0833,114.95,53.65,82,100,0.63,CN,2022-03-31 15:52:23,overcast clouds
238,Manta,-0.95,-80.7333,80.38,83,75,4.61,EC,2022-03-31 15:52:23,broken clouds
239,Valdivia,-39.8142,-73.2459,55.49,47,79,4.92,CL,2022-03-31 15:52:24,broken clouds
240,Wanning,18.8003,110.3967,74.91,94,100,5.08,CN,2022-03-31 15:52:24,overcast clouds
241,Camacha,33.0833,-16.3333,60.22,72,75,12.66,PT,2022-03-31 15:52:24,broken clouds
242,Ordubad,38.9059,46.0234,53.26,44,0,4.05,AZ,2022-03-31 15:52:25,clear sky
243,Grafton,42.207,-71.6856,59.32,87,100,16.11,US,2022-03-31 15:52:25,mist
244,Songjianghe,42.1859,127.479,25.18,62,40,2.13,CN,2022-03-31 15:52:25,scattered clouds
245,Husavik,66.0449,-17.3389,34.43,98,100,1.83,IS,2022-03-31 15:52:26,light snow
246,Nishihara,26.1842,127.7558,69.85,94,75,23.02,JP,2022-03-31 15:52:26,broken clouds
247,Bad Tolz,47.7611,11.5589,48.67,89,100,1.28,DE,2022-03-31 15:52:26,overcast clouds
248,Port Hardy,50.6996,-127.4199,42.8,93,75,4.61,CA,2022-03-31 15:51:38,light intensity shower rain
249,Mathbaria,22.2876,89.9593,80.17,77,5,11.92,BD,2022-03-31 15:52:26,clear sky
250,Dovers,12.8833,-61.1833,80.19,76,48,18.19,VC,2022-03-31 15:52:27,scattered clouds
251,Viedma,-40.8135,-62.9967,69.33,15,0,15.79,AR,2022-03-31 15:52:27,clear sky
252,Key West,24.5557,-81.7826,86.0,69,20,25.32,US,2022-03-31 15:50:52,few clouds
253,Timmins,48.4669,-81.3331,28.22,93,100,13.8,CA,2022-03-31 15:52:15,snow
254,Port Blair,11.6667,92.75,82.44,78,40,2.3,IN,2022-03-31 15:52:28,mist
255,Sistranda,63.7256,8.834,35.56,62,100,13.4,NO,2022-03-31 15:52:28,overcast clouds
256,Geraldton,-28.7667,114.6,73.81,78,100,19.57,AU,2022-03-31 15:47:31,moderate rain
257,Tulagi,-9.0996,160.1476,82.71,74,100,1.16,SB,2022-03-31 15:52:28,overcast clouds
258,Plettenberg Bay,-34.0527,23.3716,63.93,81,94,3.27,ZA,2022-03-31 15:52:28,overcast clouds
259,Orangeburg,33.4918,-80.8557,73.36,81,100,20.71,US,2022-03-31 15:52:29,light rain
260,Billings,45.7833,-108.5007,44.51,57,100,13.8,US,2022-03-31 15:48:14,overcast clouds
261,Dingle,10.9995,122.6711,77.45,86,65,7.11,PH,2022-03-31 15:52:29,broken clouds
262,Alofi,-19.0595,-169.9187,71.49,94,61,0.0,NU,2022-03-31 15:50:34,broken clouds
263,Hearst,49.6835,-83.6665,25.05,95,100,13.67,CA,2022-03-31 15:52:29,snow
264,Necochea,-38.5473,-58.7368,59.25,61,93,11.41,AR,2022-03-31 15:52:30,overcast clouds
265,Lorengau,-2.0226,147.2712,79.34,87,100,17.34,PG,2022-03-31 15:52:30,overcast clouds
266,San Policarpo,12.1791,125.5072,80.49,83,28,12.57,PH,2022-03-31 15:52:30,scattered clouds
267,Ignalina,55.35,26.1667,32.38,38,76,5.95,LT,2022-03-31 15:52:31,broken clouds
268,Udachnyy,66.4167,112.4,25.45,67,100,7.09,RU,2022-03-31 15:52:31,overcast clouds
269,Victoria,22.2855,114.1577,73.96,82,23,15.99,HK,2022-03-31 15:51:02,few clouds
270,Sola,-13.8833,167.55,82.0,75,100,5.53,VU,2022-03-31 15:52:31,light rain
271,Buckeye,33.3703,-112.5838,72.43,42,0,11.5,US,2022-03-31 15:52:32,clear sky
272,Bathsheba,13.2167,-59.5167,79.41,83,75,20.71,BB,2022-03-31 15:52:32,broken clouds
273,Opunake,-39.4556,173.8583,63.84,88,100,1.54,NZ,2022-03-31 15:52:32,overcast clouds
274,Halvad,23.0167,71.1833,84.16,26,0,9.78,IN,2022-03-31 15:52:32,clear sky
275,Najran,17.4924,44.1277,77.65,13,0,12.15,SA,2022-03-31 15:52:33,clear sky
276,Tangjiazhuang,39.7333,118.45,42.26,22,0,5.19,CN,2022-03-31 15:53:33,clear sky
277,Minab,27.1467,57.0801,82.2,35,0,3.04,IR,2022-03-31 15:53:33,clear sky
278,Huarmey,-10.0681,-78.1522,75.16,74,89,9.89,PE,2022-03-31 15:53:34,overcast clouds
279,Giyon,8.5333,37.9833,73.15,23,15,13.33,ET,2022-03-31 15:53:34,few clouds
280,Riyadh,24.6877,46.7219,91.54,9,0,4.61,SA,2022-03-31 15:50:17,clear sky
281,Koosa,58.5255,27.0795,34.84,70,71,3.02,EE,2022-03-31 15:53:34,broken clouds
282,Naze,28.3667,129.4833,59.92,74,100,22.64,JP,2022-03-31 15:51:06,overcast clouds
283,Saint-Joseph,-21.3667,55.6167,77.38,72,41,14.5,RE,2022-03-31 15:53:35,scattered clouds
284,Wajima,37.4,136.9,43.14,56,100,12.97,JP,2022-03-31 15:51:22,overcast clouds
285,Lexington,37.9887,-84.4777,54.34,75,100,17.27,US,2022-03-31 15:53:35,overcast clouds
286,Taiyuan,37.8694,112.5603,48.06,25,0,13.42,CN,2022-03-31 15:53:35,clear sky
287,Sysert,56.4953,60.8192,26.58,98,91,3.09,RU,2022-03-31 15:53:35,overcast clouds
288,Gejiu,23.306,103.1635,48.69,88,57,7.52,CN,2022-03-31 15:53:36,broken clouds
289,Hasaki,35.7333,140.8333,46.8,85,100,24.29,JP,2022-03-31 15:53:36,light rain
290,Kuryk,43.2,51.65,55.13,51,76,8.63,KZ,2022-03-31 15:53:37,broken clouds
291,Uige,-7.6087,15.0613,80.62,74,75,9.22,AO,2022-03-31 15:53:37,thunderstorm
292,Orsk,51.2049,58.5668,38.3,75,0,15.66,RU,2022-03-31 15:53:37,clear sky
293,Kloulklubed,7.0419,134.2556,79.45,81,100,5.77,PW,2022-03-31 15:53:37,overcast clouds
294,Vitoria Do Mearim,-3.4622,-44.8706,80.83,85,100,3.53,BR,2022-03-31 15:52:26,overcast clouds
295,San Vicente,-26.6167,-54.1333,66.22,31,73,6.49,AR,2022-03-31 15:53:38,broken clouds
296,Fort Nelson,58.8053,-122.7002,22.59,86,100,9.22,CA,2022-03-31 15:50:38,overcast clouds
297,Amboasary,-25.0333,46.3833,74.14,78,0,10.92,MG,2022-03-31 15:53:38,clear sky
298,Sidney,-33.8679,151.2073,61.11,85,75,24.16,AU,2022-03-31 15:51:24,light intensity shower rain
299,Altamira,-3.2033,-52.2064,82.49,83,100,4.61,BR,2022-03-31 15:53:39,overcast clouds
300,Kaura Namoda,12.5898,6.5779,101.41,5,21,2.98,NG,2022-03-31 15:53:39,few clouds
301,Cayenne,4.9333,-52.3333,84.24,15,75,11.5,GF,2022-03-31 15:49:14,broken clouds
302,Uyemskiy,64.4743,40.8524,21.25,79,40,6.71,RU,2022-03-31 15:53:39,scattered clouds
303,Ola,59.5833,151.2833,5.14,82,62,9.66,RU,2022-03-31 15:53:39,broken clouds
304,Puerto Escondido,15.85,-97.0667,83.07,44,53,7.47,MX,2022-03-31 15:53:40,broken clouds
305,Filadelfia,39.9523,-75.1638,69.03,74,100,19.57,US,2022-03-31 15:50:38,overcast clouds
306,Carauari,-4.8828,-66.8958,75.51,95,100,2.17,BR,2022-03-31 15:53:40,heavy intensity rain
307,Drezdenko,52.8383,15.8308,47.44,29,100,12.73,PL,2022-03-31 15:51:39,overcast clouds
308,Roanoke,37.271,-79.9414,67.01,85,100,14.97,US,2022-03-31 15:48:43,overcast clouds
309,Tambacounda,13.7539,-13.7586,106.38,10,98,5.91,SN,2022-03-31 15:53:41,overcast clouds
310,Hay River,60.8156,-115.7999,13.98,85,100,12.66,CA,2022-03-31 15:53:41,light snow
311,Watsa,3.0372,29.5355,75.11,60,31,4.65,CD,2022-03-31 15:53:41,scattered clouds
312,Damaturu,11.747,11.9608,102.7,4,24,6.91,NG,2022-03-31 15:53:41,few clouds
313,Saskatoon,52.1168,-106.6345,39.18,68,75,18.41,CA,2022-03-31 15:53:42,broken clouds
314,Pombas,17.1503,-25.0201,73.18,75,23,14.9,CV,2022-03-31 15:53:42,few clouds
315,Voh,-20.9667,164.7,75.83,92,4,1.79,NC,2022-03-31 15:53:42,clear sky
316,Kalmunai,7.4167,81.8167,80.76,82,6,9.71,LK,2022-03-31 15:53:43,clear sky
317,Avera,33.194,-82.5271,65.71,86,94,17.22,US,2022-03-31 15:49:31,light rain
318,Baruun-Urt,46.6806,113.2792,25.84,30,90,8.46,MN,2022-03-31 15:53:43,overcast clouds
319,Bethel,41.3712,-73.414,57.79,94,100,3.44,US,2022-03-31 15:53:43,haze
320,Mporokoso,-9.3727,30.125,63.61,92,81,2.91,ZM,2022-03-31 15:54:44,broken clouds
321,Arkhara,49.4212,130.0842,18.63,88,65,8.01,RU,2022-03-31 15:54:44,broken clouds
322,Mineiros,-17.5694,-52.5511,81.77,58,44,3.62,BR,2022-03-31 15:51:59,scattered clouds
323,Minsk,53.9,27.5667,35.35,53,94,10.29,BY,2022-03-31 15:54:44,overcast clouds
324,Algiers,36.7525,3.042,60.62,72,40,18.41,DZ,2022-03-31 15:54:45,scattered clouds
325,Vityazevo,44.9931,37.2719,61.21,39,0,17.9,RU,2022-03-31 15:54:45,clear sky
326,Saldanha,-33.0117,17.9442,69.85,73,68,23.89,ZA,2022-03-31 15:54:45,broken clouds
327,Lagoa,39.05,-27.9833,61.56,87,98,5.82,PT,2022-03-31 15:50:55,overcast clouds
328,Verona,45.4167,11.0333,57.74,67,75,4.61,IT,2022-03-31 15:54:45,broken clouds
329,Barcelos,41.5388,-8.6151,59.85,65,79,14.32,PT,2022-03-31 15:54:46,broken clouds
330,Berkak,62.825,10.0118,27.91,92,100,8.01,NO,2022-03-31 15:54:46,snow
331,Shellbrook,53.2168,-106.4011,22.23,86,100,5.68,CA,2022-03-31 15:54:46,overcast clouds
332,Kaeo,-35.1,173.7833,59.32,95,49,2.55,NZ,2022-03-31 15:54:47,scattered clouds
333,Sambava,-14.2667,50.1667,77.22,86,52,13.24,MG,2022-03-31 15:54:47,light rain
334,San Miguel El Alto,21.0167,-102.35,72.75,15,9,7.07,MX,2022-03-31 15:54:47,clear sky
335,Tessaoua,13.7574,7.9874,100.09,4,55,6.67,NE,2022-03-31 15:54:47,broken clouds
336,Sibu,2.3,111.8167,75.51,94,20,1.14,MY,2022-03-31 15:54:48,light rain
337,Samarai,-10.6167,150.6667,81.36,81,100,10.76,PG,2022-03-31 15:54:48,heavy intensity rain
338,Ifanadiana,-21.3,47.6333,65.66,95,8,1.03,MG,2022-03-31 15:54:48,light rain
339,Henties Bay,-22.116,14.2845,64.96,77,1,13.0,NA,2022-03-31 15:54:49,clear sky
340,Quatre Cocos,-20.2078,57.7625,78.91,76,99,18.92,MU,2022-03-31 15:54:49,light rain
341,Asilah,35.465,-6.0348,64.36,78,29,18.57,MA,2022-03-31 15:54:49,scattered clouds
342,Katangli,51.7102,143.2326,4.91,93,14,5.99,RU,2022-03-31 15:54:50,few clouds
343,Puerto Del Rosario,28.5004,-13.8627,69.55,64,20,18.41,ES,2022-03-31 15:54:50,few clouds
344,Yerofey Pavlovich,53.9667,121.9667,12.25,95,61,3.76,RU,2022-03-31 15:54:50,broken clouds
345,Bilibino,68.0546,166.4372,-19.68,93,67,2.8,RU,2022-03-31 15:54:51,broken clouds
346,Calvinia,-31.4707,19.776,71.91,30,19,10.29,ZA,2022-03-31 15:54:51,few clouds
347,Klaksvik,62.2266,-6.589,38.32,67,100,6.91,FO,2022-03-31 15:54:51,overcast clouds
348,Fairbanks,64.8378,-147.7164,12.54,47,0,6.91,US,2022-03-31 15:54:51,clear sky
349,San Patricio,28.017,-97.5169,72.16,37,10,7.18,US,2022-03-31 15:54:52,clear sky
350,Vagay,57.9375,69.0217,26.13,98,100,1.72,RU,2022-03-31 15:54:52,light snow
351,Ayan,56.45,138.1667,11.5,78,20,9.98,RU,2022-03-31 15:54:52,few clouds
352,Kristinehamn,59.3098,14.1081,37.96,45,78,3.8,SE,2022-03-31 15:54:53,broken clouds
353,Tchaourou,8.8865,2.5975,101.53,20,82,3.33,BJ,2022-03-31 15:54:53,broken clouds
354,Bagdarin,54.4333,113.6,11.39,91,63,4.59,RU,2022-03-31 15:54:53,broken clouds
355,Lazaro Cardenas,17.9583,-102.2,78.57,56,4,2.35,MX,2022-03-31 15:54:53,clear sky
356,Elizabeth City,36.2946,-76.2511,73.42,77,100,4.0,US,2022-03-31 15:54:54,overcast clouds
357,Bhan,26.5583,67.7214,88.74,3,0,4.38,PK,2022-03-31 15:54:54,clear sky
358,Barstow,34.8986,-117.0228,59.99,65,100,8.77,US,2022-03-31 15:54:54,overcast clouds
359,Belaguntha,19.8833,84.65,80.85,75,3,2.3,IN,2022-03-31 15:54:55,clear sky
360,Burnie,-41.0667,145.9167,49.91,76,0,8.48,AU,2022-03-31 15:54:55,clear sky
361,Rogers,36.3668,-95.5836,42.03,83,100,5.99,US,2022-03-31 15:53:54,overcast clouds
362,Verkhnyaya Toyma,62.2349,44.9985,22.44,87,98,6.64,RU,2022-03-31 15:54:55,overcast clouds
363,Marrakesh,31.6315,-8.0083,69.87,40,20,5.75,MA,2022-03-31 15:55:56,few clouds
364,Salou,41.0766,1.1416,63.34,53,20,19.57,ES,2022-03-31 15:55:56,few clouds
365,Broome,42.2506,-75.833,62.02,72,100,7.0,US,2022-03-31 15:55:56,overcast clouds
366,Sechura,-5.5569,-80.8222,81.23,58,68,7.36,PE,2022-03-31 15:55:57,broken clouds
367,Sereflikochisar,38.9393,33.5386,60.4,44,91,12.26,TR,2022-03-31 15:55:57,overcast clouds
368,Ugoofaaru,5.6667,73.0,83.75,68,9,1.5,MV,2022-03-31 15:55:57,clear sky
369,Nanortalik,60.1432,-45.2371,37.67,81,100,5.68,GL,2022-03-31 15:55:57,light rain
370,Oussouye,12.485,-16.5469,98.78,33,100,16.44,SN,2022-03-31 15:55:58,overcast clouds
371,Bayreuth,49.9481,11.5783,43.2,92,100,11.99,DE,2022-03-31 15:55:58,overcast clouds
372,Oranjemund,-28.55,16.4333,62.65,77,1,19.48,NA,2022-03-31 15:55:58,clear sky
373,Bom Jesus,-9.0744,-44.3586,97.34,29,46,2.98,BR,2022-03-31 15:55:59,scattered clouds
374,Port Said,31.2565,32.2841,64.38,94,0,8.05,EG,2022-03-31 15:54:05,clear sky
375,Russell,32.3502,-85.1999,65.91,76,75,10.36,US,2022-03-31 15:55:59,broken clouds
376,Lumeje,-11.55,20.7833,75.92,71,87,0.29,AO,2022-03-31 15:55:59,overcast clouds
377,Santa Isabel Do Rio Negro,-0.4139,-65.0192,87.94,55,99,4.97,BR,2022-03-31 15:55:59,overcast clouds
378,Khonsa,27.0167,95.5667,62.4,91,86,2.84,IN,2022-03-31 15:56:00,overcast clouds
379,Brigantine,39.4101,-74.3646,68.04,93,100,20.87,US,2022-03-31 15:55:02,overcast clouds
380,Havre-Saint-Pierre,50.2334,-63.5986,37.76,56,0,6.91,CA,2022-03-31 15:56:00,clear sky
381,Warrington,53.3925,-2.5802,46.87,60,75,15.99,GB,2022-03-31 15:56:00,broken clouds
382,Eenhana,-17.4667,16.3333,77.58,61,92,5.68,NA,2022-03-31 15:56:01,overcast clouds
383,Salalah,17.0151,54.0924,80.22,46,0,1.05,OM,2022-03-31 15:56:01,clear sky
384,Leshukonskoye,64.8989,45.7622,20.55,94,100,1.39,RU,2022-03-31 15:56:01,overcast clouds
385,Guarda,40.5373,-7.2658,45.91,69,71,15.21,PT,2022-03-31 15:56:02,broken clouds
386,Kasempa,-13.4584,25.8338,68.18,92,80,4.43,ZM,2022-03-31 15:56:02,light rain
387,Treinta Y Tres,-33.2333,-54.3833,66.02,37,14,12.44,UY,2022-03-31 15:56:02,few clouds
388,Miranda,3.2499,-76.2281,79.65,82,86,3.36,CO,2022-03-31 15:56:03,overcast clouds
389,Nelson Bay,-32.7167,152.15,61.0,79,88,27.29,AU,2022-03-31 15:56:03,light rain
390,Pyu,18.4833,96.4333,78.91,36,6,3.2,MM,2022-03-31 15:56:03,clear sky
391,Menongue,-14.6585,17.691,73.02,79,76,4.5,AO,2022-03-31 15:56:04,light rain
392,Coquimbo,-29.9533,-71.3436,58.73,88,75,11.5,CL,2022-03-31 15:56:04,broken clouds
393,Sassandra,4.95,-6.0833,86.14,67,62,10.0,CI,2022-03-31 15:56:04,broken clouds
394,Harper,4.375,-7.7169,84.79,71,82,7.65,LR,2022-03-31 15:56:04,light rain
395,Xai-Xai,-25.0519,33.6442,77.25,80,4,11.95,MZ,2022-03-31 15:55:55,clear sky
396,Vanimo,-2.6741,141.3028,78.19,88,100,9.71,PG,2022-03-31 15:56:05,overcast clouds
397,West Plains,36.7281,-91.8524,41.83,79,100,10.36,US,2022-03-31 15:56:05,overcast clouds
398,Kletskaya,49.3145,43.0584,57.27,55,100,13.96,RU,2022-03-31 15:56:05,overcast clouds
399,Luanda,-8.8368,13.2343,86.0,70,40,16.11,AO,2022-03-31 15:56:06,scattered clouds
400,Eureka,40.8021,-124.1637,47.68,92,100,10.02,US,2022-03-31 15:56:06,overcast clouds
401,Warrenton,-28.114,24.8475,79.59,31,45,7.18,ZA,2022-03-31 15:56:06,scattered clouds
402,Broken Hill,-31.95,141.4333,60.51,59,0,12.66,AU,2022-03-31 15:56:07,clear sky
403,Lazeshchyna,48.2685,24.4201,43.77,97,100,3.33,UA,2022-03-31 15:56:07,light rain
404,Conde,-7.2597,-34.9075,85.46,66,40,11.5,BR,2022-03-31 15:56:07,moderate rain
405,Moose Factory,51.2585,-80.6094,28.4,86,100,12.66,CA,2022-03-31 15:56:08,overcast clouds
406,Edgewater,28.9889,-80.9023,81.16,55,11,17.69,US,2022-03-31 15:55:25,few clouds
407,Kargil,34.5667,76.1,25.38,73,2,3.62,IN,2022-03-31 15:56:08,clear sky
408,Meiganga,6.5167,14.3,95.45,14,29,2.1,CM,2022-03-31 15:57:08,scattered clouds
409,Dwarka,22.2394,68.9678,78.49,74,0,9.22,IN,2022-03-31 15:57:09,clear sky
410,Kostomuksha,64.571,30.5767,19.8,86,99,1.66,RU,2022-03-31 15:57:09,overcast clouds
411,Jaru,-10.4389,-62.4664,78.78,88,99,1.28,BR,2022-03-31 15:57:09,overcast clouds
412,Havelock,34.8791,-76.9013,73.02,82,100,23.02,US,2022-03-31 15:57:09,overcast clouds
413,Hokitika,-42.7167,170.9667,59.54,84,100,2.33,NZ,2022-03-31 15:57:10,overcast clouds
414,Churapcha,62.0025,132.4325,-13.23,100,72,3.44,RU,2022-03-31 15:57:10,broken clouds
415,Pahrump,36.2083,-115.9839,59.95,40,62,3.0,US,2022-03-31 15:52:51,broken clouds
416,Mount Isa,-20.7333,139.5,76.77,27,0,18.41,AU,2022-03-31 15:57:10,light rain
417,Abu Kamal,34.4506,40.9171,73.87,21,3,9.44,SY,2022-03-31 15:57:11,clear sky
418,Muti,7.2758,122.28,80.33,81,58,2.39,PH,2022-03-31 15:57:11,very heavy rain
419,Surgut,61.25,73.4167,21.38,62,0,7.0,RU,2022-03-31 15:57:11,clear sky
420,Malartic,48.1335,-78.1328,35.02,95,100,12.62,CA,2022-03-31 15:53:21,overcast clouds
421,Winburg,-28.518,27.0093,74.1,31,27,4.47,ZA,2022-03-31 15:55:03,scattered clouds
422,Vestmannaeyjar,63.4427,-20.2734,41.99,52,0,8.05,IS,2022-03-31 15:57:12,clear sky
423,Tacuarembo,-31.7333,-55.9833,62.38,43,2,9.46,UY,2022-03-31 15:57:12,clear sky
424,Kasangulu,-4.5911,15.1708,94.14,67,84,0.54,CD,2022-03-31 15:57:12,broken clouds
425,Unity,52.4501,-109.1682,30.25,97,100,16.15,CA,2022-03-31 15:57:13,light snow
426,Sokoto,13.0609,5.239,102.61,4,47,2.89,NG,2022-03-31 15:57:13,scattered clouds
427,Nemuro,43.3236,145.575,29.88,85,100,11.25,JP,2022-03-31 15:57:13,overcast clouds
428,Berlevag,70.8578,29.0864,28.35,69,100,24.16,NO,2022-03-31 15:57:13,overcast clouds
429,Zhigansk,66.7697,123.3711,9.52,93,100,15.08,RU,2022-03-31 15:57:14,overcast clouds
430,Chimoio,-19.1164,33.4833,76.95,73,20,8.05,MZ,2022-03-31 15:57:14,few clouds
431,Yenagoa,4.9247,6.2642,90.18,57,58,9.78,NG,2022-03-31 15:57:14,broken clouds
432,Acarau,-2.8856,-40.12,75.76,90,100,7.4,BR,2022-03-31 15:57:15,moderate rain
433,Lensk,60.7253,114.9278,31.64,89,100,11.41,RU,2022-03-31 15:57:15,overcast clouds
434,Pridonskoy,51.6841,39.0727,39.76,100,100,15.66,RU,2022-03-31 15:57:15,mist
435,Tabasalu,59.4303,24.5331,34.11,55,0,5.75,EE,2022-03-31 15:57:16,clear sky
436,Gummidipundi,13.4,80.15,86.0,84,4,10.8,IN,2022-03-31 15:57:16,clear sky
437,Sur,22.5667,59.5289,80.17,49,0,1.54,OM,2022-03-31 15:57:16,clear sky
438,Escanaba,45.7453,-87.0646,30.51,86,100,17.27,US,2022-03-31 15:57:16,snow
439,Hamilton,39.1834,-84.5333,48.18,83,99,3.0,US,2022-03-31 15:56:53,overcast clouds
440,Banda Aceh,5.5577,95.3222,80.47,78,100,1.88,ID,2022-03-31 15:57:17,overcast clouds
441,Kerman,30.2832,57.0788,71.46,10,0,13.8,IR,2022-03-31 15:57:17,clear sky
442,Rocha,-34.4833,-54.3333,61.56,53,79,14.2,UY,2022-03-31 15:57:17,broken clouds
443,Kunya,12.2233,8.5325,98.76,8,0,4.61,NG,2022-03-31 15:57:18,clear sky
444,Scarborough,54.2797,-0.4044,42.78,73,32,8.99,GB,2022-03-31 15:53:42,scattered clouds
445,Varhaug,58.6147,5.6457,41.68,46,2,10.04,NO,2022-03-31 15:57:18,clear sky
446,Panzhihua,26.5851,101.7128,56.57,78,99,4.21,CN,2022-03-31 15:57:18,overcast clouds
447,Beloha,-25.1667,45.05,74.1,75,0,15.52,MG,2022-03-31 15:57:19,clear sky
448,Quelimane,-17.8786,36.8883,82.35,78,40,10.36,MZ,2022-03-31 15:57:19,scattered clouds
449,Kirakira,-10.4544,161.9205,79.57,85,100,4.07,SB,2022-03-31 15:57:19,overcast clouds
450,Pangody,65.85,74.4859,15.66,92,100,20.4,RU,2022-03-31 15:57:20,light snow
451,Wagar,16.1525,36.2032,94.73,19,8,20.65,SD,2022-03-31 15:57:20,clear sky
452,Omboue,-1.5746,9.2618,79.07,86,100,9.6,GA,2022-03-31 15:57:20,light rain
453,Kodino,63.7198,39.6447,17.11,91,57,4.63,RU,2022-03-31 15:57:20,broken clouds
454,Sao Miguel Do Araguaia,-13.275,-50.1628,86.43,59,93,4.25,BR,2022-03-31 15:57:21,overcast clouds
455,La Union,-5.4,-80.75,83.23,52,79,5.7,PE,2022-03-31 15:57:21,broken clouds
456,Delmas,18.5447,-72.3028,87.06,41,6,7.0,HT,2022-03-31 15:57:21,clear sky
457,Sabang,5.8933,95.3214,83.44,69,98,4.47,ID,2022-03-31 15:58:22,overcast clouds
458,Abu Dhabi,24.4667,54.3667,78.82,64,0,6.91,AE,2022-03-31 15:58:22,clear sky
459,Srednekolymsk,67.45,153.6833,-17.86,100,94,1.81,RU,2022-03-31 15:58:22,overcast clouds
460,Bossangoa,6.4926,17.4552,101.03,19,86,2.59,CF,2022-03-31 15:58:23,overcast clouds
461,Talara,-4.5772,-81.2719,81.36,65,0,12.66,PE,2022-03-31 15:58:23,clear sky
462,Griffith,41.5284,-87.4237,38.39,91,100,8.05,US,2022-03-31 15:58:23,overcast clouds
463,San Javier,37.8063,-0.8374,63.68,52,75,11.01,ES,2022-03-31 15:58:24,thunderstorm
464,Porto Walter,-8.2686,-72.7439,89.15,51,98,4.21,BR,2022-03-31 15:58:24,overcast clouds
465,Begoro,6.3871,-0.3774,87.24,52,99,6.96,GH,2022-03-31 15:58:24,overcast clouds
466,Ngatea,-37.2833,175.5,62.04,98,53,0.76,NZ,2022-03-31 15:58:24,broken clouds
467,Grand-Santi,4.25,-54.3833,87.4,57,100,2.06,GF,2022-03-31 15:58:25,overcast clouds
468,Ojinaga,29.5667,-104.4167,70.57,32,0,0.0,MX,2022-03-31 15:58:25,clear sky
469,Porbandar,21.6422,69.6093,78.78,83,0,9.22,IN,2022-03-31 15:56:39,smoke
470,Manokwari,-0.8667,134.0833,77.72,85,100,3.8,ID,2022-03-31 15:58:25,overcast clouds
471,Uyskoye,54.3775,60.0047,29.41,97,100,4.36,RU,2022-03-31 15:58:26,overcast clouds
472,Berea,41.3662,-81.8543,58.75,82,100,20.71,US,2022-03-31 15:58:26,overcast clouds
473,Port Lincoln,-34.7333,135.8667,60.4,72,23,21.99,AU,2022-03-31 15:58:26,few clouds
474,Comodoro Rivadavia,-45.8667,-67.5,64.26,32,0,9.22,AR,2022-03-31 15:58:27,clear sky
475,Codrington,-38.2667,141.9667,56.8,67,85,14.54,AU,2022-03-31 15:58:27,overcast clouds
476,Fortuna,40.5982,-124.1573,46.92,88,0,10.36,US,2022-03-31 15:58:27,clear sky
477,Athenry,53.2964,-8.7431,46.27,45,79,14.43,IE,2022-03-31 15:58:27,broken clouds
478,Chingirlau,51.095,54.0814,42.3,86,66,8.77,KZ,2022-03-31 15:58:28,broken clouds
479,Plerin,48.5425,-2.7798,40.44,77,75,17.0,FR,2022-03-31 15:58:28,light rain
480,Hampton,37.0299,-76.3452,73.06,73,100,21.85,US,2022-03-31 15:58:28,overcast clouds
481,Hecun,36.5333,114.1111,47.57,26,100,4.63,CN,2022-03-31 15:58:29,overcast clouds
482,Zhelyabovka,45.3988,34.7578,59.11,53,95,9.69,UA,2022-03-31 15:58:29,overcast clouds
483,Santa Helena De Goias,-17.8136,-50.5969,86.14,51,74,3.83,BR,2022-03-31 15:58:29,broken clouds
484,Mamakan,57.8161,114.0028,21.76,92,100,4.74,RU,2022-03-31 15:58:30,overcast clouds
485,Half Moon Bay,37.4636,-122.4286,53.31,91,75,0.0,US,2022-03-31 15:58:30,mist
486,Clinton,42.587,-82.9199,49.93,72,80,11.99,US,2022-03-31 15:58:30,broken clouds
487,Vire,48.9167,-0.8333,40.39,78,94,19.6,FR,2022-03-31 15:58:30,light rain
488,Austin,30.2672,-97.7431,68.83,44,0,1.99,US,2022-03-31 15:56:17,clear sky
489,Berdigestyakh,62.0989,126.6992,7.66,97,100,2.82,RU,2022-03-31 15:58:31,overcast clouds
490,Tura,25.5198,90.2201,72.88,82,64,3.33,IN,2022-03-31 15:58:31,broken clouds
491,Upata,8.0086,-62.3989,88.25,44,100,6.31,VE,2022-03-31 15:58:32,overcast clouds
492,Tual,-5.6667,132.75,82.27,70,100,4.21,ID,2022-03-31 15:58:32,overcast clouds
493,Hobyo,5.3505,48.5268,83.12,72,4,14.16,SO,2022-03-31 15:58:32,clear sky
494,Dudinka,69.4058,86.1778,15.62,97,83,4.99,RU,2022-03-31 15:58:32,broken clouds
495,Samfya,-11.3649,29.5565,68.68,88,48,4.41,ZM,2022-03-31 15:58:33,light rain
496,Emerald,-23.5333,148.1667,75.34,53,0,12.66,AU,2022-03-31 15:54:50,clear sky
497,Nhamunda,-2.1861,-56.7131,80.55,80,99,2.19,BR,2022-03-31 15:58:33,overcast clouds
498,Senden,48.3244,10.0444,50.49,81,75,10.36,DE,2022-03-31 15:58:33,broken clouds
499,Kentville,45.0835,-64.4988,41.13,91,100,4.61,CA,2022-03-31 15:58:34,overcast clouds
500,Nabire,-3.3667,135.4833,76.87,83,100,5.23,ID,2022-03-31 15:58:34,overcast clouds
501,Katherine,-14.4667,132.2667,71.92,64,51,3.44,AU,2022-03-31 15:58:34,broken clouds
502,Onguday,50.75,86.15,22.6,88,90,3.27,RU,2022-03-31 15:59:35,overcast clouds
503,Liverpool,53.4106,-2.9779,46.15,64,75,21.85,GB,2022-03-31 15:59:35,broken clouds
504,Monte Carmelo,-18.7247,-47.4986,83.34,49,9,5.14,BR,2022-03-31 15:59:35,clear sky
505,Isilkul,54.9109,71.2728,35.44,84,100,15.84,RU,2022-03-31 15:59:36,overcast clouds
506,North Myrtle Beach,33.816,-78.68,77.29,81,100,16.11,US,2022-03-31 15:54:39,overcast clouds
507,Maturin,9.75,-63.1767,86.22,54,98,8.99,VE,2022-03-31 15:58:21,overcast clouds
508,Thiruvananthapuram,8.4833,76.9167,85.98,74,20,4.61,IN,2022-03-31 15:55:16,haze
509,Ulverstone,-41.15,146.1667,50.18,75,0,4.0,AU,2022-03-31 15:59:36,clear sky
510,Carballo,43.213,-8.691,57.0,85,87,9.82,ES,2022-03-31 15:59:36,overcast clouds
511,Roald,62.5833,6.1333,42.1,70,75,6.91,NO,2022-03-31 15:59:37,light snow
512,Morant Bay,17.8815,-76.4093,86.7,73,15,13.76,JM,2022-03-31 15:59:37,few clouds
513,Lompoc,34.6391,-120.4579,55.78,79,100,15.99,US,2022-03-31 15:59:37,mist
514,Greer,34.9387,-82.2271,67.01,93,100,16.11,US,2022-03-31 15:59:37,overcast clouds
515,Goma,-1.6792,29.2228,66.36,88,88,1.57,CD,2022-03-31 15:59:38,moderate rain
516,Mecca,21.4267,39.8261,83.79,31,0,8.03,SA,2022-03-31 15:59:11,clear sky
517,Epinal,48.1833,6.45,43.56,97,100,8.16,FR,2022-03-31 15:59:38,light rain
518,Puerto Leguizamo,-0.1934,-74.7819,81.23,79,91,4.23,CO,2022-03-31 15:59:38,overcast clouds
519,Pundaguitan,6.3711,126.1689,82.13,77,76,7.43,PH,2022-03-31 15:59:39,broken clouds
520,Kavaratti,10.5669,72.642,83.64,77,5,10.83,IN,2022-03-31 15:59:39,clear sky
521,Montepuez,-13.1256,38.9997,70.54,96,76,4.29,MZ,2022-03-31 15:59:39,broken clouds
522,Solwezi,-12.1688,26.3894,66.22,95,71,4.05,ZM,2022-03-31 15:54:50,light rain
523,Hambantota,6.1241,81.1185,77.34,94,40,2.3,LK,2022-03-31 15:56:02,scattered clouds
524,Karakol,42.4907,78.3936,34.65,59,0,5.73,KG,2022-03-31 15:59:40,clear sky
525,Carutapera,-1.195,-46.02,73.71,98,100,1.79,BR,2022-03-31 15:59:40,overcast clouds
526,Pacific Grove,36.6177,-121.9166,50.67,87,90,1.99,US,2022-03-31 15:59:40,overcast clouds
527,Eston,51.1501,-108.7514,37.92,96,100,20.09,CA,2022-03-31 15:59:41,overcast clouds
528,Daloa,6.8774,-6.4502,89.96,47,98,3.65,CI,2022-03-31 15:59:41,overcast clouds
529,Whitehorse,60.7161,-135.0538,28.81,92,75,3.44,CA,2022-03-31 15:59:41,broken clouds
530,Nizhniy Ingash,56.2,96.53,38.68,72,100,17.29,RU,2022-03-31 15:59:42,overcast clouds
531,Pionki,51.476,21.4499,41.59,58,100,1.99,PL,2022-03-31 15:59:42,overcast clouds
532,Sovetskiy,61.3614,63.5842,15.4,90,60,5.99,RU,2022-03-31 15:59:42,broken clouds
533,Rio Grande,-32.035,-52.0986,66.31,43,3,11.81,BR,2022-03-31 15:59:42,clear sky
534,Muisne,0.6,-80.0333,82.08,73,57,7.63,EC,2022-03-31 15:59:43,broken clouds
535,Omsukchan,62.5333,155.8,-3.32,99,100,5.86,RU,2022-03-31 15:59:43,overcast clouds
536,Santa Maria,-29.6842,-53.8069,61.9,51,40,5.75,BR,2022-03-31 15:59:43,scattered clouds
537,Gold Coast,-28.0,153.4333,70.03,79,100,17.27,AU,2022-03-31 15:59:44,light rain
538,Bonavista,48.6499,-53.1147,33.66,81,93,14.85,CA,2022-03-31 15:59:44,overcast clouds
539,Eyl,7.9803,49.8164,80.94,78,6,14.99,SO,2022-03-31 15:59:44,clear sky
540,Loucovice,48.6202,14.2575,43.68,96,100,5.95,CZ,2022-03-31 15:59:45,overcast clouds
541,Clovis,36.8252,-119.7029,60.67,85,95,5.01,US,2022-03-31 15:59:45,overcast clouds
542,La Tuque,47.4334,-72.7824,35.85,80,100,9.22,CA,2022-03-31 15:59:45,light rain
543,Cowra,-33.8333,148.6833,54.37,64,2,14.07,AU,2022-03-31 15:59:45,clear sky
544,Monroe,43.1501,-77.6831,69.42,63,100,7.0,US,2022-03-31 15:59:46,overcast clouds
545,Dunedin,-45.8742,170.5036,52.81,76,100,10.0,NZ,2022-03-31 15:57:33,moderate rain
546,Luohe,33.5717,114.0353,50.72,47,100,5.77,CN,2022-03-31 15:59:46,overcast clouds
547,Malindi,-3.2175,40.1191,86.16,66,75,9.22,KE,2022-03-31 15:59:46,broken clouds
548,Tomatlan,19.9333,-105.25,81.19,31,40,3.22,MX,2022-03-31 15:59:47,scattered clouds
549,Lodwar,3.1191,35.5973,90.43,35,36,19.48,KE,2022-03-31 15:59:47,scattered clouds
550,Kurilsk,45.2333,147.8833,26.04,68,77,7.25,RU,2022-03-31 16:00:47,broken clouds
551,Taltal,-25.4,-70.4833,66.58,68,9,3.83,CL,2022-03-31 16:00:47,clear sky
552,Kenai,60.5544,-151.2583,34.14,82,95,10.29,US,2022-03-31 16:00:48,overcast clouds
553,Tobol,52.6844,62.5794,34.25,84,99,12.24,KZ,2022-03-31 16:00:48,overcast clouds
554,Atherton,53.5237,-2.4935,45.59,56,100,4.0,GB,2022-03-31 16:00:48,overcast clouds
555,Preobrazheniye,42.9019,133.9064,32.59,59,18,7.9,RU,2022-03-31 15:57:58,few clouds
556,Sisimiut,66.9395,-53.6735,23.72,84,62,4.76,GL,2022-03-31 16:00:49,broken clouds
557,Jiexiu,37.0244,111.9125,48.2,24,100,6.04,CN,2022-03-31 16:00:49,overcast clouds
558,Yatou,37.15,122.3833,40.23,61,70,12.33,CN,2022-03-31 16:00:50,broken clouds
559,Kushmurun,52.4503,64.6311,30.65,86,90,14.23,KZ,2022-03-31 16:00:50,overcast clouds
560,Hervey Bay,-25.2986,152.8535,73.02,76,62,11.01,AU,2022-03-31 16:00:50,broken clouds
561,Maraba,-5.3686,-49.1178,79.66,80,96,4.14,BR,2022-03-31 16:00:50,overcast clouds
562,Fereydun Kenar,36.6864,52.5225,56.68,66,17,8.21,IR,2022-03-31 16:00:51,few clouds
563,San Clemente,33.427,-117.612,61.47,85,98,4.0,US,2022-03-31 16:00:04,overcast clouds
564,Bubaque,11.2833,-15.8333,76.28,73,97,10.78,GW,2022-03-31 16:00:51,overcast clouds
565,Gimli,50.6336,-96.9907,20.95,87,39,4.27,CA,2022-03-31 16:00:51,scattered clouds
566,Snasa,64.2457,12.3778,30.61,65,32,2.55,NO,2022-03-31 16:00:52,scattered clouds
567,Salinopolis,-0.6136,-47.3561,74.59,95,100,4.81,BR,2022-03-31 16:00:52,overcast clouds
568,Sao Jose Da Coroa Grande,-8.8978,-35.1478,83.5,67,100,7.14,BR,2022-03-31 16:00:52,overcast clouds
569,Shenjiamen,29.9576,122.298,51.21,78,100,20.58,CN,2022-03-31 16:00:53,overcast clouds
570,Wainwright,52.839,-110.8572,33.39,86,100,22.1,CA,2022-03-31 16:00:53,light snow
571,Maridi,4.9158,29.4742,88.54,32,32,7.87,SS,2022-03-31 16:00:53,scattered clouds
572,Wuwei,37.9281,102.6414,45.48,33,97,3.18,CN,2022-03-31 16:00:54,overcast clouds
573,Dickinson,29.4608,-95.0513,67.01,50,0,10.0,US,2022-03-31 15:56:50,clear sky
574,Peniche,39.3558,-9.3811,59.94,80,45,20.22,PT,2022-03-31 16:00:54,scattered clouds
575,Ust-Abakan,53.8525,91.3742,40.91,56,0,11.18,RU,2022-03-31 16:00:54,clear sky
576,Sherwood,34.8151,-92.2243,52.75,56,26,15.01,US,2022-03-31 16:00:55,scattered clouds
577,Saint-Pierre,-21.3393,55.4781,78.48,74,20,23.02,RE,2022-03-31 16:00:55,few clouds
578,Livingstone,-17.8419,25.8543,74.62,63,58,5.99,ZM,2022-03-31 16:00:55,broken clouds
579,Tres Arroyos,-38.3739,-60.2798,60.1,47,29,8.23,AR,2022-03-31 16:00:55,scattered clouds
580,Olinda,-8.0089,-34.8553,85.73,70,40,11.5,BR,2022-03-31 15:59:06,scattered clouds
581,Milledgeville,33.0801,-83.2321,64.09,100,100,4.61,US,2022-03-31 15:57:57,overcast clouds
582,Evensk,61.95,159.2333,12.33,77,100,9.24,RU,2022-03-31 16:00:56,overcast clouds
583,Usta Muhammad,28.1794,68.0445,85.78,4,0,6.69,PK,2022-03-31 16:00:57,clear sky
584,Boyolangu,-8.1181,111.8935,76.87,90,100,1.74,ID,2022-03-31 16:00:57,overcast clouds
585,Andros Town,24.7,-77.7667,78.4,66,12,22.1,BS,2022-03-31 16:00:57,few clouds
586,Kodinsk,58.6881,99.1844,34.54,97,100,13.67,RU,2022-03-31 16:00:58,overcast clouds
587,Beringovskiy,63.05,179.3167,3.31,95,100,19.91,RU,2022-03-31 16:00:58,light snow
588,Inirida,3.8653,-67.9239,89.56,54,31,4.21,CO,2022-03-31 16:00:58,scattered clouds
589,Ledec,49.9745,15.5937,41.38,82,100,11.5,CZ,2022-03-31 16:00:58,overcast clouds
590,Zhenlai,45.8495,123.2973,31.15,41,0,7.58,CN,2022-03-31 16:00:59,clear sky
591,Andra,62.5147,65.8878,14.52,90,93,6.82,RU,2022-03-31 16:00:59,overcast clouds
592,Esna,25.2934,32.554,89.04,7,31,9.35,EG,2022-03-31 16:00:59,scattered clouds
593,Todi,42.7799,12.4046,55.22,50,99,8.32,IT,2022-03-31 16:01:00,overcast clouds
594,Magaria,12.9983,8.9099,99.23,4,44,7.58,NE,2022-03-31 16:01:00,scattered clouds
595,Cucuyagua,14.65,-88.8667,85.84,42,51,3.76,HN,2022-03-31 16:02:00,broken clouds
596,Tokmak,47.2514,35.7058,55.22,60,99,15.59,UA,2022-03-31 16:02:01,overcast clouds
597,Qaqortoq,60.7167,-46.0333,37.4,73,99,3.53,GL,2022-03-31 16:02:02,overcast clouds
598,Darayya,33.459,36.2374,67.68,22,55,5.44,SY,2022-03-31 16:02:02,broken clouds
599,North Bend,43.4065,-124.2243,42.17,100,100,4.34,US,2022-03-31 16:02:03,overcast clouds
600,Laukaa,58.7372,29.8453,29.44,76,100,1.5,RU,2022-03-31 16:02:03,overcast clouds
601,Goba,7.0167,39.9833,59.59,50,91,5.1,ET,2022-03-31 16:02:04,overcast clouds
602,Goderich,43.7501,-81.7165,54.91,84,66,30.53,CA,2022-03-31 16:02:04,broken clouds
603,Keetmanshoop,-26.5833,18.1333,88.59,26,26,12.03,NA,2022-03-31 16:02:04,scattered clouds
604,Matina,10.0761,-83.2895,86.5,57,70,6.29,CR,2022-03-31 16:02:04,broken clouds
605,Jodhpur,26.2867,73.03,88.92,7,0,5.84,IN,2022-03-31 16:02:05,clear sky
606,Tineo,43.3376,-6.4145,46.65,98,100,3.69,ES,2022-03-31 16:02:05,light rain
607,Vallenar,-28.5708,-70.7581,78.48,34,0,6.24,CL,2022-03-31 16:02:05,clear sky
608,Mackay,-21.15,149.2,67.68,65,13,4.23,AU,2022-03-31 16:02:06,few clouds
609,Aberdeen,57.1437,-2.0981,44.49,82,20,14.97,GB,2022-03-31 15:58:33,few clouds
610,Charlottetown,46.2352,-63.1267,40.55,52,100,8.99,CA,2022-03-31 16:01:24,light rain
611,Mnogovershinnyy,53.9353,139.9242,5.49,86,67,4.29,RU,2022-03-31 16:02:06,broken clouds
612,La Romana,18.4273,-68.9728,81.43,62,28,16.33,DO,2022-03-31 16:02:06,scattered clouds
613,Pilani,28.3684,75.6041,85.08,7,0,10.42,IN,2022-03-31 15:59:11,clear sky
614,Hami,42.8,93.45,48.34,22,0,3.04,CN,2022-03-31 16:02:07,clear sky
615,Tocopilla,-22.092,-70.1979,71.26,66,6,7.92,CL,2022-03-31 16:00:29,clear sky
616,Mayya,61.7333,130.2811,4.32,100,77,3.18,RU,2022-03-31 16:02:07,broken clouds
617,Bandipur,27.9333,84.4167,68.45,59,61,3.0,NP,2022-03-31 16:02:07,broken clouds
618,Araouane,18.9048,-3.5265,98.74,7,94,8.34,ML,2022-03-31 16:02:08,overcast clouds
619,Kiama,-34.6833,150.8667,59.38,89,100,7.0,AU,2022-03-31 16:00:14,light rain
620,Aklavik,68.2191,-135.0107,-23.13,95,56,5.79,CA,2022-03-31 16:02:08,broken clouds
621,Canela,-29.3656,-50.8156,61.29,56,0,1.99,BR,2022-03-31 16:02:08,clear sky
622,New Ulm,44.3125,-94.4605,31.42,76,100,12.66,US,2022-03-31 16:00:55,overcast clouds
623,Borogontsy,62.6683,131.1683,-9.74,100,75,2.21,RU,2022-03-31 16:02:09,broken clouds
624,Petropavlovka,50.6114,105.3196,25.36,80,36,4.88,RU,2022-03-31 16:02:09,scattered clouds
625,Villazon,-22.0866,-65.5942,57.56,45,49,8.39,BO,2022-03-31 16:02:09,scattered clouds
626,Conceicao Da Barra,-18.5933,-39.7322,89.08,52,0,7.4,BR,2022-03-31 16:02:10,clear sky
627,Socorro,31.6546,-106.3033,60.39,38,20,5.75,US,2022-03-31 16:02:10,few clouds
628,Okhtyrka,50.3104,34.8988,56.75,66,97,7.9,UA,2022-03-31 16:02:10,overcast clouds
629,Kulhudhuffushi,6.6221,73.07,84.2,71,23,4.45,MV,2022-03-31 16:02:11,few clouds
630,Tigil,57.8,158.6667,12.87,97,100,2.24,RU,2022-03-31 16:02:11,overcast clouds
631,Palmer,42.1584,-72.3287,58.55,84,100,1.01,US,2022-03-31 16:02:11,light intensity drizzle
632,Buala,-8.145,159.5921,79.57,83,100,3.36,SB,2022-03-31 16:02:12,light rain
633,Leh,34.1667,77.5833,25.14,50,1,5.48,IN,2022-03-31 16:02:12,clear sky
634,Krasnoyarskaya,47.6501,42.0443,56.93,61,99,8.72,RU,2022-03-31 16:02:12,overcast clouds
635,Maamba,-17.3667,27.15,73.87,71,16,4.43,ZM,2022-03-31 16:02:12,few clouds
636,Verkhnyaya Inta,65.9811,60.3094,15.8,89,100,11.43,RU,2022-03-31 16:02:13,overcast clouds
637,Qandala,11.472,49.8728,80.24,79,26,4.9,SO,2022-03-31 16:02:13,scattered clouds
638,Pinhao,-25.6956,-51.6597,61.95,83,98,5.82,BR,2022-03-31 16:02:13,overcast clouds
639,Soubre,5.7856,-6.6083,88.5,58,97,6.35,CI,2022-03-31 16:02:14,light rain
640,Zile,40.3031,35.8864,57.94,44,66,6.26,TR,2022-03-31 16:02:14,broken clouds
641,Mpika,-11.8343,31.4529,63.73,96,74,4.63,ZM,2022-03-31 16:02:14,broken clouds
642,Sabirabad,40.0095,48.4752,59.0,43,0,16.78,AZ,2022-03-31 16:03:15,clear sky
643,Baykit,61.67,96.37,33.17,76,100,19.84,RU,2022-03-31 16:03:15,light snow
644,Pedasi,7.5333,-80.0333,82.81,69,90,12.37,PA,2022-03-31 16:03:15,overcast clouds
645,Shimoga,13.9167,75.5667,77.52,81,51,9.4,IN,2022-03-31 16:03:15,broken clouds
646,Sangar,63.9242,127.4739,-0.45,97,100,1.32,RU,2022-03-31 16:03:16,overcast clouds
647,Kudahuvadhoo,2.6708,72.8944,83.28,68,9,1.66,MV,2022-03-31 16:03:16,clear sky
648,Noumea,-22.2763,166.4572,82.99,99,6,2.95,NC,2022-03-31 16:03:16,clear sky
649,Mangan,27.5167,88.5333,71.28,84,99,1.32,IN,2022-03-31 15:59:00,overcast clouds
650,Bacolod,10.6667,122.95,79.52,79,21,8.52,PH,2022-03-31 15:58:49,few clouds
651,Villa Rica,33.7321,-84.9191,66.78,78,63,9.71,US,2022-03-31 16:03:17,broken clouds
652,Toamasina,-18.1667,49.3833,75.31,84,92,11.1,MG,2022-03-31 16:03:17,light rain
